[
    {
        "Name": "Coop Restaurant Basel Am Marktplatz",
        "Distance": 73,
        "LogoUrl": "https://libs.coop.ch/logos-vst/coop-restaurant-de.svg",
        "FormatId": "restaurant",
        "ZipCode": "4001",
        "CityName": "Basel",
        "StreetName": "Gerbergasse",
        "HouseNumber": "4",
        "Latitude": 47.557443,
        "Longitude": 7.587798,
        "Open": true,
        "OpeningTime": "08:30",
        "ClosingTime": "17:45"
    },
    {
        "Name": "Coop City Basel Am Marktplatz",
        "Distance": 77,
        "LogoUrl": "https://libs.coop.ch/logos-vst/coop-city-de.svg",
        "FormatId": "city",
        "ZipCode": "4001",
        "CityName": "Basel",
        "StreetName": "Gerbergasse",
        "HouseNumber": "4",
        "Latitude": 47.557416,
        "Longitude": 7.587785,
        "Open": true,
        "OpeningTime": "08:30",
        "ClosingTime": "18:00"
    },
    {
        "Name": "Coop Supermarkt City Basel Marktplatz Food",
        "Distance": 79,
        "LogoUrl": "https://libs.coop.ch/logos-vst/coop-retail-de.svg",
        "FormatId": "retail",
        "ZipCode": "4001",
        "CityName": "Basel",
        "StreetName": "Hutgasse",
        "HouseNumber": "19",
        "Latitude": 47.557515,
        "Longitude": 7.587254,
        "Open": true,
        "OpeningTime": "08:30",
        "ClosingTime": "18:00"
    },
    {
        "Name": "Coop Supermarkt Basel Fischm√§rt",
        "Distance": 171,
        "LogoUrl": "https://libs.coop.ch/logos-vst/coop-retail-de.svg",
        "FormatId": "retail",
        "ZipCode": "4051",
        "CityName": "Basel",
        "StreetName": "Marktgasse",
        "HouseNumber": "8",
        "Latitude": 47.559584,
        "Longitude": 7.587193,
        "Open": true,
        "OpeningTime": "06:30",
        "ClosingTime": "18:00"
    }
]