[
    {
        "Name": "Coop Supermarkt Reinach AG",
        "Distance": 260,
        "FormatId": "retail",
        "Latitude": 47.25163,
        "Longitude": 8.182447,
        "LogoUrl": "https://libs.coop.ch/logos-vst/coop-retail-de.svg",
        "ZipCode": "5734",
        "CityName": "Reinach",
        "StreetName": "Obere Stumpenbachstrasse",
        "HouseNumber": "10",
        "Open": false,
        "OpeningTime": null,
        "ClosingTime": null
    },
    {
        "Name": "Coop Restaurant Reinach AG",
        "Distance": 260,
        "FormatId": "restaurant",
        "Latitude": 47.25163,
        "Longitude": 8.182447,
        "LogoUrl": "https://libs.coop.ch/logos-vst/coop-restaurant-de.svg",
        "ZipCode": "5734",
        "CityName": "Reinach",
        "StreetName": "Obere Stumpenbachstrasse",
        "HouseNumber": "10",
        "Open": false,
        "OpeningTime": null,
        "ClosingTime": null
    },
    {
        "Name": "Coop Pronto Shop mit Tankstelle Menziken",
        "Distance": 893,
        "FormatId": "pronto",
        "Latitude": 47.246055,
        "Longitude": 8.184932,
        "LogoUrl": "https://libs.coop.ch/logos-vst/coop-pronto-de.svg",
        "ZipCode": "5737",
        "CityName": "Menziken",
        "StreetName": "Hauptstrasse",
        "HouseNumber": "14",
        "Open": true,
        "OpeningTime": "06:00",
        "ClosingTime": "23:00"
    },
    {
        "Name": "Coop Pronto Shop mit Tankstelle Reinach",
        "Distance": 1360,
        "FormatId": "pronto",
        "Latitude": 47.265448,
        "Longitude": 8.176627,
        "LogoUrl": "https://libs.coop.ch/logos-vst/coop-pronto-de.svg",
        "ZipCode": "5734",
        "CityName": "Reinach",
        "StreetName": "Aarauerstrasse",
        "HouseNumber": "68",
        "Open": true,
        "OpeningTime": "06:00",
        "ClosingTime": "23:00"
    },
    {
        "Name": "Coop Supermarkt Beromünster",
        "Distance": 5137,
        "FormatId": "retail",
        "Latitude": 47.208051,
        "Longitude": 8.1905,
        "LogoUrl": "https://libs.coop.ch/logos-vst/coop-retail-de.svg",
        "ZipCode": "6215",
        "CityName": "Beromünster",
        "StreetName": "Bahnhofstrasse",
        "HouseNumber": "4",
        "Open": false,
        "OpeningTime": null,
        "ClosingTime": null
    },
    {
        "Name": "Coop Supermarkt Meisterschwanden",
        "Distance": 5752,
        "FormatId": "retail",
        "Latitude": 47.29571,
        "Longitude": 8.22775,
        "LogoUrl": "https://libs.coop.ch/logos-vst/coop-retail-de.svg",
        "ZipCode": "5616",
        "CityName": "Meisterschwanden",
        "StreetName": "Hauptstrasse",
        "HouseNumber": "10",
        "Open": false,
        "OpeningTime": null,
        "ClosingTime": null
    },
    {
        "Name": "Coop Supermarkt Hitzkirch",
        "Distance": 6734,
        "FormatId": "retail",
        "Latitude": 47.223992,
        "Longitude": 8.260124,
        "LogoUrl": "https://libs.coop.ch/logos-vst/coop-retail-de.svg",
        "ZipCode": "6285",
        "CityName": "Hitzkirch",
        "StreetName": "Bahnhofstrasse",
        "HouseNumber": "13",
        "Open": false,
        "OpeningTime": null,
        "ClosingTime": null
    },
    {
        "Name": "Coop Supermarkt Unterkulm",
        "Distance": 8268,
        "FormatId": "retail",
        "Latitude": 47.311928,
        "Longitude": 8.114356,
        "LogoUrl": "https://libs.coop.ch/logos-vst/coop-retail-de.svg",
        "ZipCode": "5726",
        "CityName": "Unterkulm",
        "StreetName": "Hauptstrasse",
        "HouseNumber": "34",
        "Open": false,
        "OpeningTime": null,
        "ClosingTime": null
    },
    {
        "Name": "Coop Supermarkt Triengen",
        "Distance": 8400,
        "FormatId": "retail",
        "Latitude": 47.237696,
        "Longitude": 8.074471,
        "LogoUrl": "https://libs.coop.ch/logos-vst/coop-retail-de.svg",
        "ZipCode": "6234",
        "CityName": "Triengen",
        "StreetName": "Kantonsstrasse",
        "HouseNumber": "75",
        "Open": false,
        "OpeningTime": null,
        "ClosingTime": null
    },
    {
        "Name": "Coop Pronto Shop mit Tankstelle Schenkon",
        "Distance": 9390,
        "FormatId": "pronto",
        "Latitude": 47.184682,
        "Longitude": 8.111918,
        "LogoUrl": "https://libs.coop.ch/logos-vst/coop-pronto-de.svg",
        "ZipCode": "6214",
        "CityName": "Schenkon",
        "StreetName": "Grenzstrasse",
        "HouseNumber": "1b",
        "Open": true,
        "OpeningTime": "06:00",
        "ClosingTime": "22:00"
    }
]